,City_ID,City,Cloudiness,Country,Date,Humidity,Lat,Lng,Max Temp,Wind Speed
0,2112802,Hasaki,91,JP,1655102340,64,35.7333,140.8333,73.29,13.38
1,2075265,Busselton,85,AU,1655102479,69,-33.65,115.3333,61.07,15.77
2,4021858,Guerrero Negro,29,MX,1655102479,92,27.9769,-114.0611,63.64,12.71
3,3652764,Puerto Ayora,86,EC,1655102480,91,-0.7393,-90.3518,71.55,1.01
4,2022572,Khatanga,100,RU,1655102480,27,71.9667,102.5,72.3,5.59
5,4035715,Avarua,40,CK,1655102481,78,-21.2078,-159.775,75.25,6.91
6,2180815,Tuatapere,87,NZ,1655102481,77,-46.1333,167.6833,44.19,16.44
7,1045114,Inhambane,40,MZ,1655102482,88,-23.865,35.3833,69.78,0.0
8,2033536,Yakeshi,100,CN,1655102482,78,49.2833,120.7333,64.27,7.29
9,5364271,Laguna,0,US,1655102483,70,38.421,-121.4238,68.45,6.91
10,6185377,Yellowknife,20,CA,1655102483,87,62.456,-114.3525,52.32,2.3
11,672343,Negru Vodă,34,RO,1655102484,60,43.8167,28.2,77.11,13.15
12,6170031,Tuktoyaktuk,98,CA,1655102485,90,69.4541,-133.0374,32.72,7.85
13,5880054,Barrow,100,US,1655102485,93,71.2906,-156.7887,28.42,8.05
14,5848280,Kapaa,75,US,1655102486,86,22.0752,-159.319,80.58,17.27
15,4030556,Rikitea,42,PF,1655102486,66,-23.1203,-134.9692,73.18,12.15
16,3430863,Mar del Plata,0,AR,1655102487,73,-38.0023,-57.5575,46.94,3.44
17,3430863,Mar del Plata,0,AR,1655102487,73,-38.0023,-57.5575,46.94,3.44
18,5983607,Inuvik,75,CA,1655102488,75,68.3499,-133.7218,41.86,8.05
19,2618795,Klaksvík,90,FO,1655102488,87,62.2266,-6.589,49.12,5.61
20,2618795,Klaksvík,90,FO,1655102488,87,62.2266,-6.589,49.12,5.61
21,2109701,Auki,14,SB,1655102489,83,-8.7676,160.7034,79.45,4.16
22,6201424,Mataura,75,NZ,1655102490,88,-46.1927,168.8643,46.47,10.45
23,4018227,Ciudad de Armería,89,MX,1655102490,82,18.9333,-103.9667,76.86,4.18
24,2126199,Cherskiy,33,RU,1655102491,30,68.75,161.3,69.35,8.75
25,2063036,Port Lincoln,63,AU,1655102492,61,-34.7333,135.8667,59.72,12.41
26,2156643,Mount Gambier,100,AU,1655102294,60,-37.8333,140.7667,53.55,2.8
27,2110227,Butaritari,23,KI,1655102492,67,3.0707,172.7902,82.69,13.42
28,2027044,Batagay,87,RU,1655102493,37,67.6333,134.6333,69.03,12.39
29,1516048,Khovd,87,MN,1655102494,16,48.0056,91.6419,87.48,6.08
30,3466165,Cidreira,98,BR,1655102494,75,-30.1811,-50.2056,49.77,13.89
31,2644210,Liverpool,75,GB,1655102495,78,53.4106,-2.9779,58.14,14.97
32,155052,Malangali,15,TZ,1655102495,45,-8.5667,34.85,68.04,10.83
33,556268,Ostrovnoy,100,RU,1655102496,68,68.0531,39.5131,57.56,2.19
34,5122534,Jamestown,38,US,1655102496,66,42.097,-79.2353,60.39,1.01
35,1015776,Bredasdorp,100,ZA,1655102497,75,-34.5322,20.0403,58.64,3.96
36,1015776,Bredasdorp,100,ZA,1655102497,75,-34.5322,20.0403,58.64,3.96
37,4032369,Pangai,20,TO,1655102498,83,-19.8,-174.35,80.71,6.91
38,2123814,Leningradskiy,100,RU,1655102499,86,69.3833,178.4167,34.57,7.18
39,2126710,Beringovskiy,91,RU,1655102499,58,63.05,179.3167,46.71,8.08
40,591632,Kärdla,75,EE,1655102500,72,58.9978,22.7492,62.06,9.22
41,2398430,Mimongo,100,GA,1655102500,93,-1.6195,11.6068,70.29,2.75
42,2398430,Mimongo,100,GA,1655102500,93,-1.6195,11.6068,70.29,2.75
43,1213855,Sibolga,20,ID,1655102501,63,1.7427,98.7792,86.41,5.99
44,4020109,Atuona,92,PF,1655102502,66,-9.8,-139.0333,77.88,19.66
45,5742974,North Bend,100,US,1655102503,100,43.4065,-124.2243,52.07,5.32
46,3874787,Punta Arenas,75,CL,1655102503,93,-53.15,-70.9167,44.71,6.91
47,5882953,Aklavik,100,CA,1655102504,86,68.2191,-135.0107,38.12,9.55
48,2186313,Napier City,5,NZ,1655102504,63,-39.4833,176.9167,51.28,10.0
49,1487332,Verkhnyaya Inta,0,RU,1655102505,32,65.9811,60.3094,54.43,9.55
50,3466704,Castro,0,BR,1655102505,75,-24.7911,-50.0119,36.5,2.51
51,217745,Bumba,93,CD,1655102506,82,2.1833,22.4667,77.38,3.09
52,286621,Salalah,75,OM,1655102506,70,17.0151,54.0924,89.69,8.05
53,3372707,Ribeira Grande,40,PT,1655102507,77,38.5167,-28.7,63.0,12.66
54,915883,Kafue,0,ZM,1655102507,49,-15.7691,28.1814,64.44,5.95
55,5282297,Bethel,100,US,1655102508,96,41.3712,-73.414,67.35,2.1
56,3421765,Nanortalik,44,GL,1655102508,88,60.1432,-45.2371,35.82,16.8
57,2162662,Inverell,0,AU,1655102509,48,-29.7833,151.1167,53.17,1.01
58,1733953,Lahad Datu,100,MY,1655102402,61,5.0268,118.327,86.16,6.64
59,2126123,Chokurdakh,6,RU,1655102510,17,70.6333,147.9167,71.56,11.1
60,3833367,Ushuaia,82,AR,1655102510,94,-54.8,-68.3,42.73,5.19
61,2641434,Northam,13,GB,1655102511,85,51.0333,-4.2167,56.66,9.15
62,2070998,Geraldton,100,AU,1655102511,56,-28.7667,114.6,68.41,8.05
63,1490256,Talnakh,78,RU,1655102512,34,69.4865,88.3972,69.21,4.23
64,1490256,Talnakh,78,RU,1655102512,34,69.4865,88.3972,69.21,4.23
65,3402548,Castelo do Piauí,13,BR,1655102513,88,-5.3222,-41.5525,70.75,1.88
66,423549,Rumonge,50,BI,1655102513,62,-3.9736,29.4386,77.43,2.46
67,58933,Garoowe,100,SO,1655102514,42,8.4054,48.4845,87.49,27.0
68,2206939,Bluff,44,NZ,1655102514,66,-46.6,168.3333,46.8,26.73
69,932698,Hlotse,7,LS,1655102515,32,-28.8718,28.045,49.78,0.96
70,895953,Zambezi,0,ZM,1655102515,45,-13.5432,23.1047,62.31,8.93
71,964432,Port Alfred,100,ZA,1655102516,35,-33.5906,26.891,75.16,17.34
72,3883457,Lebu,39,CL,1655102516,88,-37.6167,-73.65,47.28,10.83
73,5106841,Albany,87,US,1655102517,93,42.6001,-73.9662,65.39,2.77
74,4013679,Coahuayana Viejo,93,MX,1655102517,81,18.7333,-103.6833,78.94,2.44
75,4013679,Coahuayana Viejo,93,MX,1655102517,81,18.7333,-103.6833,78.94,2.44
76,2109528,Buala,31,SB,1655102518,78,-8.145,159.5921,81.12,7.49
77,2098329,Daru,55,PG,1655102518,89,-9.0763,143.2092,79.43,15.75
78,1267390,Kavaratti,100,IN,1655102232,75,10.5669,72.642,83.08,16.08
79,1736356,Tumpat,20,MY,1655102519,66,6.1978,102.171,89.58,9.22
80,3366880,Hermanus,100,ZA,1655102520,82,-34.4187,19.2345,60.8,11.81
81,2012956,Yerbogachën,100,RU,1655102520,38,61.2767,108.0108,68.09,3.02
82,2012956,Yerbogachën,100,RU,1655102520,38,61.2767,108.0108,68.09,3.02
83,2012956,Yerbogachën,100,RU,1655102520,38,61.2767,108.0108,68.09,3.02
84,5861897,Fairbanks,100,US,1655102401,60,64.8378,-147.7164,62.56,1.01
85,2141714,Bourail,100,NC,1655102523,87,-21.5667,165.4833,70.66,6.51
86,324190,Alanya,6,TR,1655102523,69,36.5438,31.9998,78.93,5.84
87,6165406,Thompson,40,CA,1655102524,82,55.7435,-97.8558,51.96,2.3
88,2208248,Kaitangata,98,NZ,1655102524,80,-46.2817,169.8464,44.47,15.86
89,4862034,Iowa City,0,US,1655102525,83,41.6611,-91.5302,75.15,8.05
90,2014078,Urusha,100,RU,1655102525,66,54.05,122.9,67.24,5.01
91,3695844,Lagunas,87,PE,1655102526,93,-5.2269,-75.6753,64.98,3.09
92,4673258,Beeville,75,US,1655102526,89,28.4008,-97.7483,80.62,14.97
93,4673258,Beeville,75,US,1655102526,89,28.4008,-97.7483,80.62,14.97
94,1507390,Dikson,100,RU,1655102527,90,73.5069,80.5464,30.63,17.05
95,3361934,Saldanha,100,ZA,1655102528,92,-33.0117,17.9442,55.45,19.1
96,2565056,Punta Umbría,56,ES,1655102528,58,37.1821,-6.9661,71.24,5.57
97,2637762,Skegness,4,GB,1655102529,74,53.1436,0.3363,56.57,13.51
98,863061,Usinsk,1,RU,1655102529,24,65.9939,57.5281,57.34,8.97
99,2128975,Nemuro,100,JP,1655102492,85,43.3236,145.575,48.04,17.72
100,3576994,Cockburn Town,7,TC,1655102530,82,21.4612,-71.1419,80.08,21.27
101,1280037,Shache,79,CN,1655102531,14,38.4167,77.2406,92.28,1.92
102,5859699,College,100,US,1655102531,60,64.8569,-147.8028,62.55,0.0
103,1696177,Bahile,100,PH,1655102532,68,9.9995,118.7878,91.27,2.75
104,5983720,Iqaluit,75,CA,1655102532,87,63.7506,-68.5145,35.33,9.22
105,5003952,Northview,0,US,1655102533,75,43.0456,-85.6006,62.24,4.61
106,2448083,Agadez,0,NE,1655102533,18,19.75,10.25,90.07,15.82
107,2035601,Mergen,100,CN,1655102534,60,49.1833,125.2167,72.18,12.48
108,3465342,Corumbá,7,BR,1655102534,46,-19.0092,-57.6533,46.62,1.5
109,2290956,Bouaké,50,CI,1655102535,100,7.6895,-5.0218,71.71,6.91
110,3355672,Lüderitz,100,NA,1655102409,64,-26.6481,15.1594,59.61,9.66
111,4362001,Mayo,20,US,1655102536,92,38.8876,-76.5119,74.28,4.61
112,5367788,Lompoc,100,US,1655102536,88,34.6391,-120.4579,64.78,17.0
113,5919850,Chapais,81,CA,1655102537,98,49.7834,-74.8492,51.58,3.6
114,777019,Vardø,75,NO,1655102537,61,70.3705,31.1107,48.18,16.11
115,1526038,Atbasar,36,KZ,1655102538,47,51.8,68.3333,75.11,14.97
116,1526038,Atbasar,36,KZ,1655102538,47,51.8,68.3333,75.11,14.97
117,546105,Nikolskoye,10,RU,1655102539,54,59.7035,30.7861,68.72,6.17
118,546105,Nikolskoye,10,RU,1655102539,54,59.7035,30.7861,68.72,6.17
119,5906757,Bow Island,73,CA,1655102541,67,49.8668,-111.3684,61.09,10.36
120,2264557,Ponta do Sol,38,PT,1655102542,77,32.6667,-17.1,69.01,0.92
121,3175096,Laas,100,IT,1655102542,77,46.6166,10.7002,63.7,2.26
122,5855927,Hilo,40,US,1655102543,89,19.7297,-155.09,79.29,7.0
123,2389804,Baoro,100,CF,1655102543,96,5.6667,15.9667,68.02,3.04
124,1006984,East London,0,ZA,1655102544,29,-33.0153,27.9116,76.14,18.41
125,5866583,Saint Paul Harbor,0,US,1655102513,59,57.79,-152.4072,60.31,8.05
126,4100525,Batesville,0,US,1655102545,86,35.7698,-91.641,82.94,12.66
127,2015306,Tiksi,46,RU,1655102545,65,71.6872,128.8694,45.01,7.4
128,3465080,Cruzeiro do Sul,0,BR,1655102546,96,-29.5128,-51.9853,45.52,3.58
129,3465080,Cruzeiro do Sul,0,BR,1655102546,96,-29.5128,-51.9853,45.52,3.58
130,3443061,Chui,9,UY,1655102547,95,-33.6971,-53.4616,44.8,4.25
131,3374210,São Filipe,5,CV,1655102547,83,14.8961,-24.4956,72.88,8.59
132,3471451,Arraial do Cabo,100,BR,1655102548,66,-22.9661,-42.0278,67.03,25.05
133,3356343,Karasburg,100,NA,1655102410,37,-28.0167,18.75,59.32,7.25
134,1024312,Mocuba,16,MZ,1655102548,85,-16.8392,36.9856,68.79,3.06
135,6137462,Saint-Augustin,26,CA,1655102549,84,51.226,-58.6502,46.24,3.38
136,6137462,Saint-Augustin,26,CA,1655102549,84,51.226,-58.6502,46.24,3.38
137,2542997,Marrakesh,14,MA,1655102550,32,31.6315,-8.0083,86.07,6.91
138,3909234,Oruro,0,BO,1655102551,37,-17.9833,-67.15,29.8,2.55
139,3909234,Oruro,0,BO,1655102551,37,-17.9833,-67.15,29.8,2.55
140,6149996,Smithers,0,CA,1655102552,76,54.7804,-127.1743,46.72,4.61
141,2094342,Kavieng,50,PG,1655102552,71,-2.5744,150.7967,83.44,12.82
142,1735799,Sri Aman,40,MY,1655102553,83,1.2376,111.4621,82.45,2.3
143,1637001,Biak,50,ID,1655102553,71,-0.9131,122.8766,82.24,5.73
144,6096551,Pangnirtung,17,CA,1655102554,90,66.1451,-65.7125,23.88,4.36
145,3893629,Coquimbo,100,CL,1655102554,93,-29.9533,-71.3436,49.73,6.91
146,2514651,Los Llanos de Aridane,75,ES,1655102555,93,28.6585,-17.9182,65.95,1.14
147,2020871,Lebedinyy,63,RU,1655102555,37,58.5167,125.5167,61.54,4.54
148,286245,Sur,0,OM,1655102556,48,22.5667,59.5289,94.21,7.85
149,2163355,Hobart,20,AU,1655102556,71,-42.8794,147.3294,51.66,10.36
150,2450173,Taoudenni,99,ML,1655102557,24,22.6783,-3.9836,93.78,2.28
151,2450173,Taoudenni,99,ML,1655102557,24,22.6783,-3.9836,93.78,2.28
152,5072006,Lincoln,75,US,1655102558,91,40.8,-96.667,80.51,17.27
153,2136825,Isangel,83,VU,1655102558,86,-19.55,169.2667,77.36,4.29
154,3351380,Caconda,0,AO,1655102559,43,-13.7333,15.0667,57.7,3.89
155,2112309,Katsuura,100,JP,1655102559,67,35.1333,140.3,67.8,14.63
156,2120612,Tigil',100,RU,1655102560,96,57.8,158.6667,42.91,6.58
157,5363208,King City,7,US,1655102560,86,36.2127,-121.126,62.91,8.9
158,3474574,Palmas,20,BR,1655102561,88,-10.2128,-48.3603,71.47,4.61
159,5850554,Makakilo City,75,US,1655102561,69,21.3469,-158.0858,77.32,20.71
160,5354943,Half Moon Bay,20,US,1655102562,81,37.4636,-122.4286,59.86,28.77
161,5354943,Half Moon Bay,20,US,1655102562,81,37.4636,-122.4286,59.86,28.77
162,5354943,Half Moon Bay,20,US,1655102562,81,37.4636,-122.4286,59.86,28.77
163,4129397,Russellville,0,US,1655102564,89,35.2784,-93.1338,81.14,3.44
164,3460087,Jardim,0,BR,1655102564,74,-21.4803,-56.1381,44.13,2.33
165,935215,Saint-Philippe,100,RE,1655102565,84,-21.3585,55.7679,71.19,17.63
166,2155415,New Norfolk,30,AU,1655102565,81,-42.7826,147.0587,51.3,3.0
167,2155415,New Norfolk,30,AU,1655102565,81,-42.7826,147.0587,51.3,3.0
168,3416888,Grindavik,100,IS,1655102566,100,63.8424,-22.4338,49.95,11.5
169,1685422,Sulangan,24,PH,1655102567,63,11.1373,123.7228,86.14,0.81
170,1275364,Bokajān,75,IN,1655102567,74,26.0167,93.7833,84.36,5.75
171,3448903,São João da Barra,100,BR,1655102568,65,-21.6403,-41.0511,66.02,18.37
172,5563397,Eureka,38,US,1655102568,84,40.8021,-124.1637,55.92,8.01
173,4031574,Provideniya,100,RU,1655102569,67,64.3833,-173.3,42.26,3.47
174,2017155,Saskylakh,0,RU,1655102569,24,71.9167,114.0833,71.55,7.76
175,1185095,Teknāf,94,BD,1655102570,67,20.8624,92.3058,87.8,8.25
176,2121385,Severo-Kuril'sk,55,RU,1655102571,87,50.6789,156.125,44.53,10.29
177,2121385,Severo-Kuril'sk,55,RU,1655102571,87,50.6789,156.125,44.53,10.29
178,3831208,Qaanaaq,0,GL,1655102572,67,77.484,-69.3632,21.96,4.99
179,2122090,Pevek,92,RU,1655102572,67,69.7008,170.3133,39.43,11.25
180,3024035,Concarneau,0,FR,1655102573,78,47.875,-3.9225,59.83,8.9
181,3024035,Concarneau,0,FR,1655102573,78,47.875,-3.9225,59.83,8.9
182,4726521,San Patricio,2,US,1655102574,82,28.017,-97.5169,84.09,13.98
183,3146487,Raudeberg,100,NO,1655102575,96,61.9875,5.1352,50.67,13.76
184,3466980,Caravelas,100,BR,1655102575,95,-17.7125,-39.2481,68.52,3.65
185,2186111,Ngunguru,2,NZ,1655102576,67,-35.6167,174.5,55.74,20.78
186,3137469,Sørland,75,NO,1655102576,87,67.667,12.6934,49.86,14.97
187,4274277,Lawrence,29,US,1655102577,81,38.9717,-95.2353,84.38,5.99
188,1250161,Batticaloa,100,LK,1655102578,53,7.7102,81.6924,90.86,7.67
189,3408064,Remanso,14,BR,1655102578,61,-9.6179,-42.0831,74.7,6.06
190,964420,Port Elizabeth,0,ZA,1655102579,66,-33.918,25.5701,63.32,4.61
191,3374083,Bathsheba,20,BB,1655102579,78,13.2167,-59.5167,81.21,17.27
192,4032243,Vaini,75,TO,1655102580,94,-21.2,-175.2,77.16,4.61
193,1627877,Sembakung,100,ID,1655102580,43,3.8167,117.25,93.18,3.67
194,2377457,Nouadhibou,20,MR,1655102581,94,20.931,-17.0347,66.18,26.46
195,2446796,Bilma,65,NE,1655102581,16,18.6853,12.9164,93.63,18.79
196,3832899,Viedma,100,AR,1655102582,50,-40.8135,-62.9967,52.45,13.96
197,3386177,Trairi,54,BR,1655102582,91,-3.2778,-39.2689,72.73,6.71
198,3369157,Cape Town,75,ZA,1655102342,93,-33.9258,18.4232,58.26,16.11
199,1489499,Togur,49,RU,1655102583,39,58.3631,82.8265,78.17,14.12
200,6690296,Saint-Joseph,68,RE,1655102466,80,-21.3667,55.6167,70.18,17.27
201,5546220,Saint George,0,US,1655102584,9,37.1041,-113.5841,90.19,13.8
202,5905393,Bonavista,3,CA,1655102585,91,48.6499,-53.1147,40.75,7.47
203,708613,Hołoby,4,UA,1655102585,72,51.0865,25.0077,68.59,4.7
204,2191562,Dunedin,7,NZ,1655102426,69,-45.8742,170.5036,44.8,20.0
205,1622318,Waingapu,35,ID,1655102586,61,-9.6567,120.2641,83.48,13.69
206,3464547,Dom Pedrito,0,BR,1655102587,80,-30.9828,-54.6731,38.68,1.57
207,1562414,Vung Tau,100,VN,1655102508,68,10.346,107.0843,86.09,8.86
208,2074865,Carnarvon,0,AU,1655102401,52,-24.8667,113.6333,71.02,12.24
209,2381334,Atar,0,MR,1655102588,14,20.5169,-13.0499,89.76,4.07
210,187585,Marsabit,69,KE,1655102589,57,2.3284,37.9899,68.95,23.49
211,1248991,Colombo,24,LK,1655102399,71,6.9319,79.8478,85.95,10.13
212,2122389,Ossora,99,RU,1655102590,75,59.2353,163.0719,47.17,2.57
213,2122389,Ossora,99,RU,1655102590,75,59.2353,163.0719,47.17,2.57
214,2127060,Arman',100,RU,1655102591,82,59.7,150.1667,52.02,5.99
215,1819729,Hong Kong,90,HK,1655102459,82,22.2855,114.1577,91.18,18.99
216,72181,Marzuq,100,YE,1655102592,10,14.4,46.4667,94.15,2.51
217,3430545,Morón,11,AR,1655102593,86,-34.6534,-58.6198,49.75,4.68
218,1651810,Airai,68,TL,1655102593,66,-8.9266,125.4092,68.14,3.11
219,3423146,Ilulissat,100,GL,1655102594,100,69.2167,-51.1,30.22,8.05
220,1626542,Sorong,70,ID,1655102594,71,-0.8833,131.25,83.61,1.48
221,2338669,Eruwa,79,NG,1655102594,91,7.5333,3.4167,74.89,3.24
222,1621313,Ambulu,66,ID,1655102595,76,-8.345,113.6058,84.34,5.39
223,678817,Godeanu,84,RO,1655102595,83,44.8005,22.6079,63.54,1.63
224,698316,Osypenko,9,UA,1655102596,45,46.9136,36.8253,81.03,14.58
225,6180550,Whitehorse,100,CA,1655102596,94,60.7161,-135.0538,45.37,6.91
226,6180550,Whitehorse,100,CA,1655102596,94,60.7161,-135.0538,45.37,6.91
227,1258247,Rehli,98,IN,1655102598,26,23.6333,79.0833,101.77,6.11
228,3984997,San Quintín,62,MX,1655102598,91,30.4833,-115.95,63.23,8.72
229,1062553,Mahanoro,96,MG,1655102599,86,-19.9,48.8,67.62,8.16
230,3693584,Pimentel,99,PE,1655102599,86,-6.8367,-79.9342,62.51,10.45
231,3693584,Pimentel,99,PE,1655102599,86,-6.8367,-79.9342,62.51,10.45
232,4126226,Pine Bluff,0,US,1655102601,89,34.2284,-92.0032,80.53,6.91
233,4126226,Pine Bluff,0,US,1655102601,89,34.2284,-92.0032,80.53,6.91
234,5275191,Superior,0,US,1655102602,79,46.7208,-92.1041,55.49,10.36
235,1684803,Tabuk,100,PH,1655102602,62,17.4189,121.4443,89.69,2.04
236,5954718,Flin Flon,36,CA,1655102603,93,54.7682,-101.865,54.23,7.11
237,3393692,Itarema,21,BR,1655102603,88,-2.9248,-39.9167,74.43,8.14
238,1797117,Rongcheng,100,CN,1655102604,64,30.634,117.8517,81.37,2.08
239,460474,Dagda,51,LV,1655102604,58,56.0951,27.5372,62.71,5.86
240,2396853,Omboué,17,GA,1655102605,84,-1.5746,9.2618,76.68,5.46
241,2171099,Codrington,100,AU,1655102606,78,-38.2667,141.9667,52.38,4.59
242,1253628,Ginda,6,IN,1655102606,15,30.6945,78.4932,93.27,5.03
243,3899539,Antofagasta,13,CL,1655102607,76,-23.65,-70.4,54.68,5.82
244,3664078,Humaitá,99,BR,1655102607,84,-7.5061,-63.0208,70.61,2.75
245,2122104,Petropavlovsk-Kamchatskiy,20,RU,1655102394,34,53.0452,158.6483,66.79,6.71
246,2381972,Adrar,72,MR,1655102608,31,20.5022,-10.0711,87.3,8.79
247,142554,Hashtrūd,0,IR,1655102609,21,37.4779,47.0508,81.86,7.56
248,3418910,Upernavik,100,GL,1655102609,96,72.7868,-56.1549,28.13,3.71
249,1262062,Naliya,48,IN,1655102610,48,23.2667,68.8333,93.4,14.05
250,2093967,Kimbe,35,PG,1655102610,80,-5.5502,150.1429,81.93,1.79
251,60019,Eyl,100,SO,1655102611,43,7.9803,49.8164,90.14,30.58
252,663178,Vărbilău,1,RO,1655102611,65,45.1833,25.95,78.08,2.84
253,3407797,Altos,18,BR,1655102612,94,-5.0381,-42.46,75.51,1.61
254,2092164,Lorengau,66,PG,1655102612,70,-2.0226,147.2712,83.5,11.68
255,542423,Krasnoborsk,100,RU,1655102613,37,61.5598,45.934,67.17,5.14
256,1735106,George Town,20,MY,1655102391,70,5.4112,100.3354,87.75,8.05
257,2923521,Furtwangen im Schwarzwald,5,DE,1655102614,86,48.05,8.2,60.53,5.68
258,3526989,Huautla,99,MX,1655102615,92,21.0333,-98.2833,69.87,1.9
259,70979,Sayyan,83,YE,1655102615,10,15.1718,44.3244,78.46,11.18
260,5895424,Bay Roberts,47,CA,1655102616,84,47.5999,-53.2648,44.65,5.01
261,161312,Babati,100,TZ,1655102616,55,-4.2167,35.75,69.85,5.03
262,5911440,Burgeo,84,CA,1655102617,83,47.6167,-57.6152,51.69,6.35
263,3451138,Rio Grande,84,BR,1655102617,91,-32.035,-52.0986,45.95,9.95
264,3663517,Manaus,75,BR,1655102458,88,-3.1019,-60.025,75.69,10.36
265,2126785,Belaya Gora,6,RU,1655102618,24,68.5333,146.4167,73.99,18.59
266,691639,Ternuvate,35,UA,1655102619,53,47.8305,36.1276,77.85,8.43
267,691639,Ternuvate,35,UA,1655102619,53,47.8305,36.1276,77.85,8.43
268,691639,Ternuvate,35,UA,1655102619,53,47.8305,36.1276,77.85,8.43
269,3382160,Cayenne,100,GF,1655102620,1,4.9333,-52.3333,74.08,3.44
270,1519924,Kushmurun,10,KZ,1655102621,48,52.4503,64.6311,70.27,14.14
271,1260454,Panna,33,IN,1655102381,21,24.7167,80.2,98.11,10.2
272,487095,Strunino,30,RU,1655102622,54,56.3833,38.5667,69.48,7.14
273,487095,Strunino,30,RU,1655102622,54,56.3833,38.5667,69.48,7.14
274,1223738,Weligama,100,LK,1655102623,72,5.9667,80.4167,84.25,12.73
275,2138555,Poum,100,NC,1655102624,82,-20.2333,164.0167,75.92,15.93
276,2138555,Poum,100,NC,1655102624,82,-20.2333,164.0167,75.92,15.93
277,107304,Buraidah,0,SA,1655102625,7,26.326,43.975,95.45,10.4
278,5866063,Kenai,0,US,1655102626,80,60.5544,-151.2583,60.03,8.05
279,1270530,Hailākāndi,100,IN,1655102626,79,24.6833,92.5667,85.71,1.5
280,3424607,Tasiilaq,100,GL,1655102627,99,65.6145,-37.6368,35.76,3.38
281,5849996,Lahaina,14,US,1655102627,93,20.8783,-156.6825,76.8,11.52
282,3572906,Andros Town,3,BS,1655102628,79,24.7,-77.7667,82.36,12.08
283,337405,Gambēla,63,ET,1655102628,63,8.25,34.5833,83.03,1.88
284,2189343,Kaeo,62,NZ,1655102629,75,-35.1,173.7833,56.32,17.25
285,710552,Chervonohryhorivka,37,UA,1655102629,58,47.623,34.5389,77.49,10.33
286,934322,Mahébourg,75,MU,1655102630,73,-20.4081,57.7,75.49,19.57
287,1735106,George Town,20,MY,1655102584,70,5.4112,100.3354,87.75,8.05
288,1650434,Bambanglipuro,100,ID,1655102631,76,-7.95,110.2833,81.91,5.28
289,286987,Nizwá,0,OM,1655102631,11,22.9333,57.5333,102.15,11.72
290,3936456,Lima,100,PE,1655102632,87,-12.0432,-77.0282,59.9,10.36
291,3936456,Lima,100,PE,1655102632,87,-12.0432,-77.0282,59.9,10.36
292,2447513,Arlit,43,NE,1655102633,15,18.7369,7.3853,95.34,11.16
293,2127202,Anadyr,0,RU,1655102633,44,64.75,177.4833,61.3,6.71
294,2142316,Yeppoon,0,AU,1655102634,56,-23.1333,150.7333,71.38,4.21
295,365742,Torit,9,SS,1655102634,42,4.4133,32.5678,86.61,2.53
296,1852357,Shimoda,100,JP,1655102635,80,34.6667,138.95,73.76,10.63
297,145724,Lucapa,0,AO,1655102635,38,-8.4192,20.7447,71.74,7.38
298,2346995,Biu,59,NG,1655102636,64,10.6129,12.1946,76.44,7.74
299,1283285,Jumla,85,NP,1655102636,37,29.2747,82.1838,75.6,2.64
300,3939761,Hualmay,51,PE,1655102637,85,-11.0964,-77.6139,61.29,9.95
301,3662761,Porto Walter,50,BR,1655102637,86,-8.2686,-72.7439,60.58,2.66
302,1282256,Hithadhoo,82,MV,1655102638,70,-0.6,73.0833,83.93,7.05
303,1282256,Hithadhoo,82,MV,1655102638,70,-0.6,73.0833,83.93,7.05
304,2013639,Verkhnevilyuysk,94,RU,1655102639,75,63.4453,120.3167,56.07,5.06
305,1562548,Vinh Yen,100,VN,1655102640,47,21.31,105.5967,93.15,2.89
306,3840300,Presidencia Roque Sáenz Peña,0,AR,1655102640,70,-26.7852,-60.4388,41.86,5.44
307,3412093,Vestmannaeyjar,100,IS,1655102641,98,63.4427,-20.2734,49.41,12.97
308,4985180,Bay City,40,US,1655102641,92,43.5945,-83.8889,59.11,4.61
309,1503879,Ketovo,62,RU,1655102642,66,55.355,65.3258,62.02,11.41
310,4513583,Hamilton,40,US,1655102642,92,39.1834,-84.5333,74.98,5.75
311,4513583,Hamilton,40,US,1655102642,92,39.1834,-84.5333,74.98,5.75
312,1265239,Lakhipur,100,IN,1655102644,88,26.0299,90.3041,81.05,1.41
313,1265239,Lakhipur,100,IN,1655102644,88,26.0299,90.3041,81.05,1.41
314,6167817,Torbay,75,CA,1655102645,89,47.6666,-52.7314,43.88,6.91
315,4034551,Faanui,96,PF,1655102645,71,-16.4833,-151.75,79.48,20.67
316,4034551,Faanui,96,PF,1655102645,71,-16.4833,-151.75,79.48,20.67
317,3868633,Vallenar,10,CL,1655102646,61,-28.5708,-70.7581,54.03,1.41
318,5972762,Hay River,20,CA,1655102647,71,60.8156,-115.7999,53.58,3.44
319,986717,Kruisfontein,100,ZA,1655102647,51,-34.0033,24.7314,64.78,1.43
320,5855051,‘Ewa Beach,40,US,1655102648,69,21.3156,-158.0072,78.75,20.71
321,2065594,Mount Isa,0,AU,1655102648,17,-20.7333,139.5,73.17,6.91
322,1529651,Altay,99,CN,1655102649,23,47.8667,88.1167,89.01,12.59
323,3620680,Bluefields,100,NI,1655102649,97,12.0137,-83.7635,73.33,3.0
324,5554428,Ketchikan,100,US,1655102650,87,55.3422,-131.6461,48.67,3.44
325,2729907,Longyearbyen,75,SJ,1655102650,87,78.2186,15.6401,39.04,4.61
326,1796663,Bantou,100,CN,1655102651,99,26.2151,117.4893,74.12,3.65
327,1796663,Bantou,100,CN,1655102651,99,26.2151,117.4893,74.12,3.65
328,3929611,San Jerónimo,100,PE,1655102652,90,-11.9472,-75.2829,41.59,1.79
329,921889,Fomboni,4,KM,1655102653,68,-12.28,43.7425,79.23,17.96
330,1512019,Aksarka,100,RU,1655102653,61,66.5606,67.7975,42.91,21.9
331,3128382,Béjar,0,ES,1655102654,32,40.3864,-5.7634,72.57,3.18
332,3128382,Béjar,0,ES,1655102654,32,40.3864,-5.7634,72.57,3.18
333,3354077,Opuwo,0,NA,1655102405,39,-18.0607,13.84,63.34,4.12
334,933995,Souillac,75,MU,1655102655,73,-20.5167,57.5167,75.58,19.57
335,3151056,Inndyr,89,NO,1655102655,77,67.0338,14.0276,55.94,2.26
336,5563839,Fortuna,100,US,1655102656,86,40.5982,-124.1573,55.65,11.5
337,1847947,Shingū,100,JP,1655102441,75,33.7333,135.9833,70.34,6.33
338,3372964,Lagoa,8,PT,1655102657,82,39.05,-27.9833,62.31,18.45
339,2282006,San-Pédro,100,CI,1655102658,72,4.7485,-6.6363,77.68,5.41
340,4033557,Tautira,34,PF,1655102658,69,-17.7333,-149.15,78.66,18.95
341,2647948,Strone,100,GB,1655102659,84,55.9856,-4.908,52.95,5.93
342,1698289,Pundaguitan,100,PH,1655102659,70,6.3711,126.1689,83.68,7.65
343,2174444,Bowen,4,AU,1655102660,48,-20.0167,148.2333,66.47,8.3
344,2174444,Bowen,4,AU,1655102660,48,-20.0167,148.2333,66.47,8.3
345,1817240,Baiyin,0,CN,1655102661,6,36.5583,104.2081,80.89,11.83
346,3449711,Santo Amaro da Imperatriz,0,BR,1655102662,82,-27.6881,-48.7786,52.81,3.98
347,5762718,Belle Fourche,100,US,1655102662,84,44.6714,-103.8522,62.33,7.52
348,455812,Saulkrasti,4,LV,1655102663,66,57.2622,24.4147,61.79,10.25
349,455812,Saulkrasti,4,LV,1655102663,66,57.2622,24.4147,61.79,10.25
350,5044290,Saint Anthony,20,US,1655102664,86,45.0205,-93.218,70.66,8.05
351,2178174,Albury,40,AU,1655102411,88,-36.0833,146.9167,50.32,5.75
352,3692073,Santiago de Cao,100,PE,1655102665,94,-7.9589,-79.2392,59.13,5.75
353,3421719,Narsaq,88,GL,1655102665,82,60.9167,-46.05,43.02,3.65
354,2992166,Montpellier,0,FR,1655102412,58,43.6109,3.8772,76.48,14.97
355,3893726,Constitución,94,CL,1655102666,87,-35.3333,-72.4167,47.3,2.15
356,779350,Karasjok,72,NO,1655102667,56,69.4719,25.5112,55.04,4.36
357,1516589,Zhezkazgan,75,KZ,1655102667,15,47.8043,67.7144,89.58,20.13
358,3347019,Mossamedes,0,AO,1655102668,54,-15.1961,12.1522,70.03,8.61
359,1502073,Krasnosel'kup,81,RU,1655102669,44,65.7,82.4667,74.73,8.88
360,1502073,Krasnosel'kup,81,RU,1655102669,44,65.7,82.4667,74.73,8.88
361,2027786,Amga,100,RU,1655102670,42,60.8953,131.9608,65.52,6.42
362,1497276,Novaya Lyalya,100,RU,1655102670,69,59.055,60.599,56.1,7.61
363,517172,Novyye Burasy,0,RU,1655102671,54,52.1324,46.0714,65.19,3.31
364,1737185,Kapit,84,MY,1655102671,70,2.0167,112.9333,84.99,3.38
365,1337613,Kulhudhuffushi,100,MV,1655102672,77,6.6221,73.07,82.71,9.91
366,3533462,Acapulco de Juárez,100,MX,1655102672,78,16.8634,-99.8901,82.22,5.75
367,552951,Karabulak,42,RU,1655102673,66,43.3036,44.8964,70.79,6.44
368,6166739,Timmins,75,CA,1655102673,100,48.4669,-81.3331,49.82,4.61
369,3406844,Baião,81,BR,1655102674,94,-2.7906,-49.6717,73.2,1.83
370,3406844,Baião,81,BR,1655102674,94,-2.7906,-49.6717,73.2,1.83
371,3985710,Cabo San Lucas,7,MX,1655102675,69,22.8909,-109.9124,84.61,12.33
372,110690,Faya,0,SA,1655102675,12,18.3851,42.4509,82.92,11.14
373,304183,Muğla Province,0,TR,1655102676,53,37.2303,28.3557,69.8,5.66
374,3420846,Qaqortoq,78,GL,1655102676,81,60.7167,-46.0333,37.47,5.73
375,3420846,Qaqortoq,78,GL,1655102676,81,60.7167,-46.0333,37.47,5.73
376,1855342,Nishihara,75,JP,1655102584,86,26.1842,127.7558,86.05,24.16
377,2412408,Nioro,88,GM,1655102678,79,13.35,-15.75,77.0,7.58
378,1259385,Port Blair,40,IN,1655102679,70,11.6667,92.75,87.84,4.61
379,2015852,Svetlaya,30,RU,1655102679,75,46.5389,138.3297,56.59,6.44
380,2137773,Vao,100,NC,1655102680,73,-22.6667,167.4833,71.4,10.98
381,3124765,Colmenar Viejo,0,ES,1655102680,36,40.6591,-3.7676,75.94,1.14
382,86049,Jalu,0,LY,1655102681,45,29.0331,21.5482,78.76,12.41
383,3115824,Muros,7,ES,1655102681,74,42.7762,-9.0603,68.09,8.79
384,3115824,Muros,7,ES,1655102681,74,42.7762,-9.0603,68.09,8.79
385,3389353,Santarém,20,BR,1655102682,100,-2.4431,-54.7083,73.53,3.44
386,6355222,Yulara,0,AU,1655102682,25,-25.2406,130.9889,68.18,3.4
387,1687534,Santo Tomas,100,PH,1655102683,58,14.1079,121.1414,92.55,2.93
388,1526041,Atasū,91,KZ,1655102684,23,48.6814,71.6433,84.4,13.62
389,3353383,Rundu,0,NA,1655102684,41,-17.9333,19.7667,59.5,7.54
390,3186952,Zadar,0,HR,1655102685,41,44.1197,15.2422,79.41,2.3
391,1349090,Harindānga,14,IN,1655102685,54,22.0383,88.3214,95.56,17.52
392,3524744,Las Margaritas,100,MX,1655102685,97,16.3167,-91.9833,59.72,5.06
393,5924351,Clyde River,100,CA,1655102686,93,70.4692,-68.5914,30.43,2.3
394,5924351,Clyde River,100,CA,1655102686,93,70.4692,-68.5914,30.43,2.3
395,1688696,San Policarpo,46,PH,1655102687,69,12.1791,125.5072,85.23,7.49
396,2093685,Kokopo,97,PG,1655102687,73,-4.352,152.2633,81.25,3.83
397,2093685,Kokopo,97,PG,1655102687,73,-4.352,152.2633,81.25,3.83
398,6089245,Norman Wells,100,CA,1655102688,93,65.282,-126.8329,41.04,11.5
399,3396121,Luís Correia,16,BR,1655102689,92,-2.8792,-41.6669,73.69,6.87
400,2077895,Alice Springs,0,AU,1655102406,32,-23.7,133.8833,69.35,5.75
401,2100765,Angoram,34,PG,1655102690,68,-4.0625,144.0661,84.67,5.32
402,3521972,Panabá,47,MX,1655102690,96,21.2833,-88.2667,73.71,6.53
403,1737714,Limbang,100,MY,1655102691,62,4.75,115.0,86.11,1.77
404,6156307,Stettler,36,CA,1655102691,100,52.3168,-112.7186,44.35,4.61
405,1242110,Kalmunai,100,LK,1655102692,50,7.4167,81.8167,91.94,6.42
406,1591474,Bac Lieu,100,VN,1655102504,61,9.285,105.7244,88.2,9.1
407,2122605,Okhotsk,100,RU,1655102693,93,59.3833,143.3,43.12,6.87
408,3865086,Bahía Blanca,98,AR,1655102693,49,-38.7196,-62.2724,53.35,11.41
409,3865086,Bahía Blanca,98,AR,1655102693,49,-38.7196,-62.2724,53.35,11.41
410,3392126,Pilar,85,BR,1655102694,94,-9.5972,-35.9567,69.73,3.33
411,2063042,Port Hedland,0,AU,1655102695,20,-20.3167,118.5667,84.25,11.5
412,2063042,Port Hedland,0,AU,1655102695,20,-20.3167,118.5667,84.25,11.5
413,1061605,Manakara,100,MG,1655102696,75,-22.1333,48.0167,68.14,1.48
414,1835848,Seoul,75,KR,1655102415,53,37.5683,126.9778,83.8,13.8
415,5468773,Gallup,0,US,1655102697,23,35.5281,-108.7426,73.24,13.8
416,2036986,Hegang,100,CN,1655102698,51,47.4,130.3667,75.36,8.79
417,3641351,El Tigre,100,VE,1655102698,87,8.8875,-64.2454,71.98,3.29
418,2122614,Ekhabi,49,RU,1655102698,55,53.5102,142.9671,67.98,9.06
419,6164499,The Pas,75,CA,1655102699,94,53.8251,-101.2541,57.22,9.22
420,2872611,Mechernich,40,DE,1655102699,83,50.6,6.65,57.61,11.12
421,2872611,Mechernich,40,DE,1655102699,83,50.6,6.65,57.61,11.12
422,3835869,Santiago del Estero,0,AR,1655102700,49,-27.7951,-64.2615,49.1,10.07
423,102527,Sakakah,0,SA,1655102701,24,29.9697,40.2064,85.57,11.18
424,6944110,Les Escoumins,100,CA,1655102701,96,48.1111,-69.0236,47.55,6.04
425,368246,Raja,79,SS,1655102702,65,8.4596,25.678,80.6,3.91
426,6050066,La Ronge,75,CA,1655102702,77,55.1001,-105.2842,59.25,5.75
427,3625542,Valera,100,VE,1655102703,85,9.3178,-70.6036,70.56,3.74
428,5688025,Bismarck,100,US,1655102703,91,46.8083,-100.7837,62.44,16.11
429,1649150,Bengkulu,100,ID,1655102479,64,-3.8004,102.2655,83.97,5.14
430,1636426,Manggar,62,ID,1655102704,74,-2.8833,108.2667,82.89,5.53
431,464790,Zapolyarnyy,33,RU,1655102705,53,69.4154,30.8136,52.88,7.25
432,779683,Hammerfest,75,NO,1655102705,87,70.6634,23.6821,43.25,6.91
433,2112576,Ishinomaki,5,JP,1655102705,79,38.4167,141.3,62.6,12.26
434,2036973,Heihe,100,CN,1655102547,84,50.2441,127.4902,66.78,5.53
435,364933,Umm Kaddadah,100,SD,1655102706,41,13.6017,26.6876,89.38,13.76
436,1167821,Pishin,0,PK,1655102707,13,30.5803,66.9961,90.23,5.48
437,1633419,Padang,98,ID,1655102596,64,-0.9492,100.3543,86.05,5.39
438,1254046,Tura,97,IN,1655102708,82,25.5198,90.2201,83.01,6.87
439,3351663,Benguela,0,AO,1655102708,43,-12.5763,13.4055,74.64,4.34
440,3351663,Benguela,0,AO,1655102708,43,-12.5763,13.4055,74.64,4.34
441,2016680,Shirokiy,100,RU,1655102709,59,49.758,129.523,74.93,15.52
442,1806327,Jiangkou,100,CN,1655102710,97,25.4872,119.1986,75.56,5.84
443,1079048,Ambovombe,0,MG,1655102710,51,-25.1667,46.0833,69.57,4.68
444,3833883,Trelew,100,AR,1655102711,23,-43.249,-65.3051,52.83,8.88
445,3408368,Acaraú,14,BR,1655102711,87,-2.8856,-40.12,75.02,8.21
446,5720495,Coos Bay,100,US,1655102712,100,43.3665,-124.2179,52.0,4.36
447,1260546,Pandharpur,91,IN,1655102462,38,17.6667,75.3333,92.32,12.95
448,1255816,Sompeta,97,IN,1655102713,51,18.9333,84.6,94.42,12.12
449,3421982,Maniitsoq,76,GL,1655102713,79,65.4167,-52.9,34.07,17.49
450,4844309,Torrington,100,US,1655102714,96,41.8007,-73.1212,66.83,5.21
451,3372783,Ponta Delgada,40,PT,1655102714,88,37.7333,-25.6667,62.51,11.5
452,1486321,Yar-Sale,100,RU,1655102715,74,66.8333,70.8333,45.57,24.0
453,2409914,Bonthe,37,SL,1655102715,88,7.5264,-12.505,76.57,0.49
454,3530691,Chunhuhub,31,MX,1655102715,99,19.55,-88.6833,72.36,2.3
455,2152659,Port Macquarie,10,AU,1655102716,75,-31.4333,152.9167,56.89,6.15
456,3397108,Jucurutu,11,BR,1655102717,90,-6.0339,-37.0203,72.09,4.32
457,2361177,Djibo,4,BF,1655102717,47,14.1022,-1.6306,87.91,9.42
458,1172779,Kulachi,0,PK,1655102717,20,31.9286,70.4592,103.62,4.74
459,509483,Pinega,100,RU,1655102718,55,64.7001,43.3936,61.3,7.87
460,1791779,Wanning,100,CN,1655102718,72,18.8003,110.3967,87.64,15.55
461,2090021,Namatanai,44,PG,1655102719,72,-3.6667,152.4333,82.44,7.49
462,315795,Elbistan,7,TR,1655102719,45,38.2059,37.1983,70.79,1.7
463,4231997,Avera,15,US,1655102720,73,33.194,-82.5271,78.85,4.74
464,4231997,Avera,15,US,1655102720,73,33.194,-82.5271,78.85,4.74
465,1650527,Balikpapan,40,ID,1655102721,89,-1.2675,116.8289,81.59,6.91
466,1650527,Balikpapan,40,ID,1655102721,89,-1.2675,116.8289,81.59,6.91
467,1157662,Bang Saphan,100,TH,1655102723,48,11.2126,99.5117,94.44,2.48
468,1028918,Pemba,75,MZ,1655102723,78,-12.974,40.5178,74.1,9.22
469,1214026,Sabang,77,ID,1655102724,72,5.8933,95.3214,83.57,6.44
470,497764,Selishche,100,RU,1655102724,63,56.8879,33.2691,66.87,7.2
471,3664525,Codajás,100,BR,1655102725,99,-3.8367,-62.0569,69.91,2.28
472,1648636,Bitung,98,ID,1655102725,72,1.4451,125.1824,77.85,6.91
473,1056899,Sambava,2,MG,1655102726,63,-14.2667,50.1667,77.43,12.82
474,2176639,Batemans Bay,2,AU,1655102626,65,-35.7167,150.1833,49.78,4.27
475,5768244,Rapid Valley,100,US,1655102727,83,44.0625,-103.1463,64.6,20.71
476,4031637,Lavrentiya,100,RU,1655102727,71,65.5833,-171.0,39.29,4.12
477,2281120,Tabou,100,CI,1655102728,72,4.423,-7.3528,77.86,6.38
478,4853078,Creston,75,US,1655102729,100,41.0586,-94.3614,76.96,9.22
479,172515,Abu Samrah,0,SY,1655102729,46,35.3029,37.1841,77.34,22.35
480,2209055,Waddān,0,LY,1655102730,52,29.1614,16.139,75.0,5.35
481,4036284,Alofi,20,NU,1655102730,88,-19.0595,-169.9187,75.09,5.75
482,610298,Beyneu,100,KZ,1655102731,24,45.3167,55.2,86.36,3.58
483,1863997,Fukuechō,75,JP,1655102731,100,32.6881,128.8419,66.56,10.36
484,5847411,Kahului,40,US,1655102732,87,20.8947,-156.47,76.84,16.11
485,3454131,Pereira Barreto,100,BR,1655102732,62,-20.6383,-51.1092,49.42,5.37
486,3454131,Pereira Barreto,100,BR,1655102732,62,-20.6383,-51.1092,49.42,5.37
487,3869716,Tocopilla,12,CL,1655102733,70,-22.092,-70.1979,60.21,6.73
488,4945455,Norfolk,100,US,1655102733,92,42.1668,-71.2495,67.41,3.29
489,3386213,Touros,12,BR,1655102734,87,-5.1989,-35.4608,73.87,8.61
490,3183284,Alghero,0,IT,1655102734,60,40.5589,8.3181,69.89,2.3
491,1790437,Zhuhai,40,CN,1655102672,84,22.2769,113.5678,87.58,13.8
492,1106677,Bambous Virieux,75,MU,1655102735,73,-20.3428,57.7575,75.45,19.57
493,583683,Aksarayskiy,55,RU,1655102736,31,46.7924,48.0119,82.89,16.67
494,3932145,Pisco,100,PE,1655102736,82,-13.7,-76.2167,60.85,1.14
495,2488835,Médéa,100,DZ,1655102737,16,36.2642,2.7539,79.18,2.35
496,3686907,Cerrito,96,CO,1655102737,92,6.8432,-72.694,52.45,1.7
497,533690,Luga,0,RU,1655102738,47,58.7372,29.8453,64.96,7.02
498,4160021,Jacksonville,20,US,1655102738,93,30.3322,-81.6556,79.05,8.05
499,4787534,Sterling,100,US,1655102739,93,39.0062,-77.4286,73.69,3.44
500,217570,Buta,96,CD,1655102739,86,2.7858,24.73,75.83,1.12
501,3548993,Los Palacios,0,CU,1655102740,91,22.5872,-83.2486,74.41,5.53
502,3628473,San Cristobal,83,VE,1655102740,98,7.7669,-72.225,63.12,3.09
503,1806687,Yong’an,69,CN,1655102740,47,39.6957,113.6871,67.86,11.41
504,2145554,Ulladulla,4,AU,1655102741,64,-35.35,150.4667,50.77,3.69
505,933109,Sehithwa,0,BW,1655102742,46,-20.4667,22.7167,60.66,6.64
506,921772,Moroni,4,KM,1655102468,67,-11.7022,43.2551,79.77,8.43
507,2510573,Teguise,75,ES,1655102743,78,29.0605,-13.564,66.42,10.36
508,6071618,Medicine Hat,100,CA,1655102743,65,50.0501,-110.6683,61.23,16.11
509,2644037,Llangefni,100,GB,1655102744,76,53.2556,-4.3106,55.65,12.66
510,2643044,Margate,0,GB,1655102744,68,51.3813,1.3862,59.7,4.0
511,708324,Horodnytsya,41,UA,1655102745,65,50.807,27.3168,70.86,2.06
512,708324,Horodnytsya,41,UA,1655102745,65,50.807,27.3168,70.86,2.06
513,562070,Gamovo,0,RU,1655102746,48,57.8652,56.1056,62.51,11.18
514,3126369,Carballo,65,ES,1655102746,88,43.213,-8.691,67.55,8.5
515,2091996,Madang,4,PG,1655102747,72,-5.2246,145.7966,83.16,7.47
516,3450083,Santa Maria,0,BR,1655102579,79,-29.6842,-53.8069,40.39,1.77
517,2168305,Dubbo,100,AU,1655102748,62,-32.25,148.6167,53.73,10.36
518,149512,Tinde,99,TZ,1655102748,50,-3.8833,33.2,73.85,9.22
519,3387204,Soure,0,BR,1655102749,82,-0.7167,-48.5233,77.94,7.9
520,99237,Iraq,0,IQ,1655102749,22,33.0,44.0,87.71,17.63
521,478050,Ust'-Kulom,4,RU,1655102750,29,61.6864,53.6902,62.56,7.63
522,933077,Shakawe,0,BW,1655102750,46,-18.3667,21.85,60.73,4.94
523,3452233,Propriá,1,BR,1655102750,95,-10.2111,-36.8403,70.12,0.87
524,1501255,Kurtamysh,75,RU,1655102751,74,54.9103,64.4319,58.37,10.0
525,779554,Honningsvåg,100,NO,1655102751,87,70.9821,25.9704,43.61,19.37
526,1261852,Narasapuram,90,IN,1655102752,46,16.45,81.6667,96.53,7.0
527,1214488,Meulaboh,87,ID,1655102753,63,4.1363,96.1285,86.04,8.55
528,2139521,Noumea,100,NC,1655102753,99,-22.2763,166.4572,75.0,8.16
529,584717,Xaçmaz,10,AZ,1655102754,48,41.4635,48.806,79.65,15.14
530,1268008,Kanniyākumāri,9,IN,1655102754,65,8.0833,77.5667,86.88,19.93
531,64814,Bandarbeyla,100,SO,1655102755,47,9.4942,50.8122,89.96,26.26
532,2641519,Newtownards,75,GB,1655102755,81,54.5924,-5.6909,54.52,9.22
533,1497406,Nizhnyaya Omka,100,RU,1655102756,68,55.4338,74.9426,66.92,6.49
534,1215502,Banda Aceh,92,ID,1655102756,69,5.5577,95.3222,85.53,7.38
535,5478673,Meadow Lake,5,US,1655102757,27,34.8014,-106.5436,79.68,2.89
536,653272,Kemijärvi,85,FI,1655102757,60,66.7131,27.4306,61.5,3.67
537,4032420,Neiafu,40,TO,1655102758,83,-18.65,-173.9833,79.48,10.36
538,2271968,Aljezur,3,PT,1655102758,68,37.3191,-8.8033,71.46,2.62
539,2685750,Östersund,75,SE,1655102759,100,63.1792,14.6357,55.62,5.99
540,544119,Kosino,5,RU,1655102759,40,58.4127,51.2782,62.13,7.81
541,4857486,Fort Dodge,0,US,1655102760,88,42.4975,-94.168,75.2,9.22
542,934649,Cap Malheureux,68,MU,1655102760,72,-19.9842,57.6142,75.47,11.01
543,2134814,Sola,75,VU,1655102761,89,-13.8833,167.55,81.27,0.0
544,4004293,Ixtapa,15,MX,1655102761,86,20.7,-105.2,77.23,2.48
545,878141,Madimba,15,TZ,1655102762,64,-10.4,40.3333,78.46,11.45
546,4614748,Collierville,0,US,1655102762,89,35.042,-89.6645,82.8,5.99
547,2629833,Husavik,100,IS,1655102762,81,66.0449,-17.3389,47.95,4.92
548,1817968,Anshun,100,CN,1655102670,91,26.25,105.9333,62.73,6.78
549,1337612,Dhidhdhoo,100,MV,1655102627,77,6.8833,73.1,82.81,10.25
550,6316343,Alta Floresta,94,BR,1655102764,76,-9.8756,-56.0861,68.25,3.67
551,2515271,Las Palmas,75,ES,1655102764,83,28.4204,-14.0131,66.99,10.36
552,3139597,Sistranda,100,NO,1655102765,87,63.7256,8.834,51.76,21.18
553,777682,Skjervøy,64,NO,1655102765,75,70.0311,20.9714,46.4,2.84
554,1267433,Kattivākkam,100,IN,1655102766,71,13.2167,80.3167,96.89,7.34
555,4333811,Morgan City,0,US,1655102766,100,29.6994,-91.2068,79.0,4.61
556,5975004,High Level,63,CA,1655102767,49,58.5169,-117.136,51.75,2.44
557,5975004,High Level,63,CA,1655102767,49,58.5169,-117.136,51.75,2.44
558,337083,Gēdo,100,ET,1655102768,69,9.0167,37.45,63.01,2.64
559,1735634,Kuching,40,MY,1655102714,79,1.55,110.3333,84.42,3.44
560,2990474,Nevers,0,FR,1655102769,63,46.9896,3.159,60.8,5.75
561,740430,Safranbolu,61,TR,1655102769,69,41.2508,32.6942,70.68,1.63
562,5989403,Kapuskasing,100,CA,1655102770,100,49.4169,-82.4331,48.29,5.75
563,6111696,Port-Cartier,99,CA,1655102770,75,50.0334,-66.8654,53.28,10.74
564,2160053,Lithgow,4,AU,1655102771,76,-33.4833,150.15,40.77,2.64
565,370510,Marabba,100,SD,1655102771,44,12.35,32.1833,89.1,14.18
566,6078372,Moose Factory,75,CA,1655102772,81,51.2585,-80.6094,50.0,9.22
567,6078372,Moose Factory,75,CA,1655102772,81,51.2585,-80.6094,50.0,9.22
568,6620339,Karratha,17,AU,1655102773,37,-20.7377,116.8463,79.45,14.72
569,3414079,Olafsvik,100,IS,1655102773,95,64.8945,-23.7142,49.01,14.67
570,2121909,Poronaysk,61,RU,1655102590,89,49.2167,143.1167,50.56,12.03
571,3395503,Marabá,100,BR,1655102774,100,-5.3686,-49.1178,71.78,2.3
572,2278158,Buchanan,64,LR,1655102775,91,5.8808,-10.0467,75.4,6.96
573,2012530,Zhigansk,100,RU,1655102775,88,66.7697,123.3711,50.92,8.59
574,2160735,Lakes Entrance,87,AU,1655102776,68,-37.8811,147.981,52.16,6.06
575,2324433,Abonnema,100,NG,1655102776,91,4.7084,6.7931,76.69,2.68
576,3870243,Taltal,30,CL,1655102777,76,-25.4,-70.4833,57.06,2.37
577,1283240,Kathmandu,75,NP,1655102505,65,27.7167,85.3167,80.82,2.3
578,3979647,Zirándaro de los Chávez,94,MX,1655102778,69,18.45,-100.9833,79.68,2.53
579,3979647,Zirándaro de los Chávez,94,MX,1655102778,69,18.45,-100.9833,79.68,2.53
580,554318,Kalevala,8,RU,1655102779,51,65.2,31.1667,64.8,4.63
581,5746545,Portland,93,US,1655102631,84,45.5234,-122.6762,52.66,5.01
582,2561668,Agadir,34,MA,1655102780,82,30.4202,-9.5982,68.45,2.75
583,3694112,Paita,65,PE,1655102780,82,-5.0892,-81.1144,63.28,10.6
584,485215,Synya,0,RU,1655102781,20,65.3718,58.0387,58.6,8.14
585,3392095,Pimenteiras,4,BR,1655102781,91,-6.2453,-41.4192,68.59,2.59
586,485660,Tsimmerbude,100,RU,1655102782,76,54.675,20.1347,64.45,1.9
587,2121025,Srednekolymsk,8,RU,1655102782,25,67.45,153.6833,72.27,15.73
588,158321,Karema,87,TZ,1655102783,53,-6.8205,30.4389,75.88,8.28
589,5338196,Coalinga,0,US,1655102783,73,36.1397,-120.3602,71.85,4.65
590,1498283,Mugur-Aksy,100,RU,1655102784,25,50.35,90.5,75.16,7.47
591,2738381,Lata,5,PT,1655102784,55,40.1629,-8.3327,66.81,2.15
592,1337607,Kudahuvadhoo,88,MV,1655102785,69,2.6708,72.8944,83.41,6.13
593,1337607,Kudahuvadhoo,88,MV,1655102785,69,2.6708,72.8944,83.41,6.13
594,578283,Yablonovo,28,RU,1655102785,75,50.8523,37.3574,71.26,3.09
595,3470137,Belmonte,11,BR,1655102786,83,-15.8631,-38.8828,71.78,3.56
596,3470137,Belmonte,11,BR,1655102786,83,-15.8631,-38.8828,71.78,3.56
597,5959326,Gananoque,100,CA,1655102787,96,44.3334,-76.1661,65.79,5.5
598,558236,Gryazovets,96,RU,1655102787,49,58.88,40.2525,65.88,7.96
599,1090225,Koungou,75,YT,1655102788,61,-12.7336,45.2042,83.91,11.5
600,1488903,Turukhansk,70,RU,1655102788,43,65.8167,87.9833,76.03,7.34
601,5969025,Haines Junction,100,CA,1655102789,62,60.7522,-137.5108,49.95,8.05
602,602150,Umeå,0,SE,1655102789,67,63.8284,20.2597,62.53,4.61
603,1784055,Zhuanghe,76,CN,1655102789,69,39.7008,122.9911,71.55,13.53
604,1687186,Sarangani,100,PH,1655102790,72,5.4033,125.4636,83.14,9.37
605,6137381,Saint-Ambroise,100,CA,1655102790,100,48.5501,-71.3324,59.54,5.75
606,3395458,Maragogi,70,BR,1655102791,90,-9.0122,-35.2225,73.54,3.85
607,5067114,Douglas,75,US,1655102791,92,41.3,-96.167,79.84,10.36
608,699328,Novopokrovka,7,UA,1655102792,63,49.8425,36.5477,75.29,4.25
609,2194098,Ahipara,31,NZ,1655102792,71,-35.1667,173.1667,56.86,22.68
610,935214,Saint-Pierre,75,RE,1655102793,88,-21.3393,55.4781,71.91,24.16
611,2206874,Waipawa,10,NZ,1655102793,79,-41.4122,175.5153,47.59,14.12
612,2155562,Nelson Bay,1,AU,1655102794,82,-32.7167,152.15,60.01,1.01
613,218253,Bondo,100,CD,1655102794,88,3.8146,23.6866,72.57,1.39
